City_ID,City,Lat,Lng,Max Temp,Humidity,Cloudiness,Wind Speed,Country,Date
0,high rock,26.62,-78.28,73.98,76,77,25.17,BS,1589437697
1,turukhansk,65.82,87.98,45.73,53,0,7.65,RU,1589437099
2,cariati,39.49,16.96,73.0,52,88,11.41,IT,1589437697
3,aklavik,68.22,-135.01,20.98,95,99,5.44,CA,1589437118
4,rochester,43.15,-77.62,42.01,74,75,6.4,US,1589437484
5,albany,42.6,-73.97,43.0,86,0,4.14,US,1589437698
6,graaff-reinet,-32.25,24.53,44.01,82,0,1.01,ZA,1589437447
7,lublin,51.0,23.0,44.6,93,40,6.93,PL,1589437698
8,saint-philippe,-21.36,55.77,80.6,51,36,5.82,RE,1589437656
9,new norfolk,-42.78,147.06,60.01,77,92,3.0,AU,1589437698
10,fortuna,40.6,-124.16,54.0,87,90,6.93,US,1589437699
11,punta arenas,-53.15,-70.92,39.2,71,75,8.05,CL,1589437699
12,jamestown,42.1,-79.24,39.99,41,1,5.19,US,1589437642
13,hermanus,-34.42,19.23,50.0,97,0,1.01,ZA,1589437645
14,amboise,47.41,0.98,42.8,75,54,16.11,FR,1589437699
15,maragogi,-9.01,-35.22,77.31,86,6,9.22,BR,1589437699
16,qaanaaq,77.48,-69.36,33.24,82,27,3.83,GL,1589437700
17,cape town,-33.93,18.42,54.0,93,0,2.24,ZA,1589437524
18,aksu,41.12,80.26,85.19,15,0,7.87,CN,1589437700
19,tessalit,20.2,1.01,83.01,31,31,7.58,ML,1589437700
20,vila do maio,15.13,-23.22,71.6,73,75,21.92,CV,1589437700
21,rikitea,-23.12,-134.97,77.74,84,0,9.04,PF,1589437657
22,alta floresta,-9.88,-56.09,70.27,97,100,3.38,BR,1589437701
23,chokurdakh,70.63,147.92,34.03,96,18,7.92,RU,1589437701
24,castro,-24.79,-50.01,57.04,97,60,3.42,BR,1589437701
25,ushuaia,-54.8,-68.3,41.0,80,75,3.36,AR,1589437701
26,port blair,11.67,92.75,79.77,87,100,11.54,IN,1589437641
27,luderitz,-26.65,15.16,60.8,48,0,5.82,NA,1589437126
28,taltal,-25.4,-70.48,57.92,68,0,3.6,CL,1589437702
29,bilibino,68.05,166.44,36.88,79,16,6.44,RU,1589437702
30,phalodi,27.13,72.37,101.48,23,0,13.51,IN,1589437702
31,tabou,4.42,-7.35,80.02,83,12,3.02,CI,1589437703
32,yellowknife,62.46,-114.35,23.0,62,78,18.01,CA,1589437477
33,torbay,47.67,-52.73,34.0,79,100,5.01,CA,1589437703
34,cotui,19.05,-70.15,77.0,94,75,11.41,DO,1589437703
35,barentu,15.11,37.59,94.46,19,7,11.21,ER,1589437703
36,saldanha,-33.01,17.94,48.2,87,0,2.24,ZA,1589437666
37,hithadhoo,-0.6,73.08,83.43,79,83,19.42,MV,1589437704
38,clyde river,70.47,-68.59,20.16,92,0,2.42,CA,1589437704
39,kapaa,22.08,-159.32,75.2,83,90,5.82,US,1589437704
40,bluff,-46.6,168.33,51.17,76,80,17.38,NZ,1589437705
41,muroto,33.28,134.15,71.6,68,20,5.82,JP,1589437705
42,kinablangan,7.69,126.55,85.84,76,100,10.25,PH,1589437705
43,mataura,-46.19,168.86,48.96,72,76,4.99,NZ,1589437705
44,cherskiy,68.75,161.3,35.92,85,21,8.93,RU,1589437705
45,bintulu,3.17,113.03,93.2,75,75,6.93,MY,1589437706
46,butaritari,3.07,172.79,83.44,79,14,12.3,KI,1589437706
47,svetlaya,46.54,138.33,53.02,60,33,7.25,RU,1589437706
48,avera,33.19,-82.53,62.6,87,1,3.36,US,1589437706
49,pangnirtung,66.15,-65.71,18.86,90,52,3.67,CA,1589437126
50,souillac,-20.52,57.52,77.0,73,40,12.75,MU,1589437706
51,guerande,47.33,-2.43,44.6,70,51,13.87,FR,1589437707
52,jieshi,22.81,115.83,78.58,78,34,10.29,CN,1589437707
53,tezu,27.92,96.17,91.71,31,44,5.28,IN,1589437707
54,lebu,-37.62,-73.65,53.51,82,86,0.74,CL,1589437707
55,copiapo,-27.37,-70.33,50.0,93,0,9.17,CL,1589437707
56,vaini,-21.2,-175.2,77.0,78,75,9.17,TO,1589437684
57,santiago del estero,-27.8,-64.26,53.04,61,4,2.57,AR,1589437460
58,thompson,55.74,-97.86,34.2,95,31,7.27,CA,1589437708
59,huarmey,-10.07,-78.15,66.97,86,16,10.36,PE,1589437708
60,caravelas,-17.71,-39.25,69.66,92,4,2.77,BR,1589437708
61,kurumkan,54.3,110.3,45.21,48,86,2.13,RU,1589437445
62,sinnamary,5.38,-52.95,77.88,86,97,10.02,GF,1589437708
63,cap malheureux,-19.98,57.61,79.0,65,80,10.0,MU,1589437709
64,puerto ayora,-0.74,-90.35,75.0,94,64,6.76,EC,1589437709
65,timizart,36.8,4.27,60.31,57,81,9.57,DZ,1589437466
66,ilulissat,69.22,-51.1,32.0,94,22,3.36,GL,1589437709
67,yulara,-25.24,130.99,69.8,19,99,13.87,AU,1589437709
68,bethel,41.37,-73.41,39.0,80,1,3.36,US,1589437709
69,augusta,48.37,10.88,44.6,87,90,2.24,DE,1589437709
70,umm lajj,25.02,37.27,87.82,38,100,1.5,SA,1589437710
71,ola,59.58,151.28,43.12,70,34,5.53,RU,1589437710
72,saint george,37.1,-113.58,68.0,28,1,3.36,US,1589437710
73,otradnoye,59.78,30.82,41.0,93,90,6.71,RU,1589437710
74,itoman,26.12,127.67,80.6,69,75,14.99,JP,1589437710
75,sidney,-33.87,151.21,57.99,93,75,12.75,AU,1589437503
76,nexo,55.06,15.13,46.4,61,0,8.05,DK,1589437711
77,ust-tsilma,65.44,52.15,42.62,64,100,14.74,RU,1589437711
78,hobart,-42.88,147.33,60.01,58,40,9.17,AU,1589437667
79,los llanos de aridane,28.66,-17.92,64.4,59,53,6.93,ES,1589437711
80,amapa,1.0,-52.0,71.94,98,96,1.52,BR,1589437711
81,broken hill,-31.95,141.43,57.2,41,1,12.75,AU,1589437447
82,elbistan,38.21,37.2,68.18,34,0,6.53,TR,1589437600
83,port hardy,50.7,-127.42,50.7,84,81,4.9,CA,1589437712
84,busselton,-33.65,115.33,80.01,37,0,6.04,AU,1589437712
85,salinas,36.68,-121.66,60.8,82,40,6.93,US,1589437623
86,tasiilaq,65.61,-37.64,24.8,100,5,1.45,GL,1589437712
87,lavrentiya,65.58,-171.0,34.48,96,100,5.55,RU,1589437712
88,lismore,-28.81,153.28,68.0,68,40,10.29,AU,1589437713
89,hilo,19.73,-155.09,75.2,73,1,3.36,US,1589437592
90,naliya,23.27,68.83,92.52,43,13,14.29,IN,1589437713
91,vao,-22.67,167.48,73.11,74,22,13.0,NC,1589437713
92,atuona,-9.8,-139.03,81.59,79,61,16.53,PF,1589437714
93,maple creek,49.92,-109.48,40.93,70,51,7.23,CA,1589437714
94,ribeira grande,38.52,-28.7,58.28,70,62,3.71,PT,1589437714
95,sikandra rao,27.7,78.4,104.34,17,0,3.22,IN,1589437714
96,lorengau,-2.02,147.27,86.0,71,11,8.43,PG,1589437714
97,cividale del friuli,46.09,13.43,63.0,93,68,2.17,IT,1589437714
98,meulaboh,4.14,96.13,87.89,63,99,6.17,ID,1589437714
99,isangel,-19.55,169.27,73.17,63,7,5.97,VU,1589437715
100,klaksvik,62.23,-6.59,39.2,86,83,8.32,FO,1589437119
101,kabo,7.7,18.63,75.7,86,55,5.12,CF,1589437715
102,catamarca,-28.47,-65.79,54.14,55,62,8.77,AR,1589437715
103,guerrero negro,27.98,-114.06,62.08,75,55,17.0,MX,1589437715
104,tsiroanomandidy,-18.77,46.03,67.69,81,61,2.06,MG,1589437715
105,lieksa,63.32,30.02,40.06,67,6,5.48,FI,1589437716
106,vila franca do campo,37.72,-25.43,53.6,71,20,10.29,PT,1589437716
107,taoudenni,22.68,-3.98,81.57,16,0,9.75,ML,1589437716
108,mahebourg,-20.41,57.7,77.0,73,40,12.75,MU,1589437716
109,andenes,69.31,16.12,35.6,74,20,9.17,NO,1589437716
110,vila velha,-20.33,-40.29,73.4,83,42,8.05,BR,1589437716
111,arauca,7.08,-70.76,73.99,95,98,3.15,CO,1589437716
112,samarai,-10.62,150.67,81.25,78,13,7.11,PG,1589437717
113,asyut,27.18,31.18,78.8,39,75,4.7,EG,1589437595
114,port lincoln,-34.73,135.87,56.73,49,65,4.88,AU,1589437634
115,marsh harbour,26.54,-77.06,73.33,78,91,24.11,BS,1589437717
116,mackenzie,55.3,-123.17,52.99,49,86,3.65,CA,1589437717
117,beringovskiy,63.05,179.32,32.07,99,100,19.01,RU,1589437717
118,saint-pierre,-21.34,55.48,80.6,51,46,5.82,RE,1589437718
119,fort nelson,58.81,-122.7,31.41,96,100,6.44,CA,1589437718
120,saskylakh,71.92,114.08,32.07,97,83,9.01,RU,1589437718
121,progreso,21.28,-89.67,82.4,74,40,11.41,MX,1589437718
122,axim,4.87,-2.24,79.21,84,10,1.92,GH,1589437718
123,sorland,67.67,12.69,37.4,86,40,5.75,NO,1589437718
124,harper,4.38,-7.72,80.04,83,13,3.18,LR,1589437718
125,flinders,-34.58,150.86,62.01,61,85,3.0,AU,1589437492
126,luzhou,28.87,105.44,77.18,61,75,5.53,CN,1589437719
127,berlevag,70.86,29.09,35.6,96,75,36.91,NO,1589437719
128,north myrtle beach,33.82,-78.68,66.2,63,1,4.7,US,1589437719
129,bonthe,7.53,-12.51,79.84,84,26,2.48,SL,1589437719
130,avarua,-21.21,-159.78,77.0,94,18,3.36,CK,1589437719
131,georgetown,5.41,100.34,91.0,70,40,11.41,MY,1589437447
132,lompoc,34.64,-120.46,59.0,87,90,8.05,US,1589437720
133,wilhelmsburg,48.11,15.61,50.0,95,100,1.99,AT,1589437720
134,hobyo,5.35,48.53,86.92,62,42,14.05,SO,1589437720
135,zirandaro,18.45,-100.98,82.54,38,0,3.31,MX,1589437720
136,kavieng,-2.57,150.8,84.69,72,28,5.79,PG,1589437720
137,arlit,18.74,7.39,84.54,12,15,7.7,NE,1589437720
138,gat,31.61,34.76,73.99,68,67,1.01,IL,1589437721
139,airai,-8.93,125.41,70.63,81,68,4.99,TL,1589437721
140,keti bandar,24.14,67.45,88.5,58,31,12.97,PK,1589437721
141,carnarvon,-24.87,113.63,83.7,24,0,2.82,AU,1589437470
142,kahului,20.89,-156.47,75.2,78,40,6.93,US,1589437721
143,sisimiut,66.94,-53.67,38.28,83,51,2.06,GL,1589437721
144,chapais,49.78,-74.85,26.28,98,0,3.36,CA,1589437507
145,cotcot,16.83,120.84,71.64,78,85,0.31,PH,1589437722
146,bento goncalves,-29.17,-51.52,59.0,96,99,5.01,BR,1589437722
147,qasigiannguit,68.82,-51.19,32.0,97,36,3.36,GL,1589437722
148,port alfred,-33.59,26.89,64.0,73,26,3.0,ZA,1589437670
149,kruisfontein,-34.0,24.73,56.08,70,0,7.0,ZA,1589437723
150,kunming,25.04,102.72,79.0,36,40,24.61,CN,1589437723
151,manyana,-23.4,21.72,54.03,39,0,5.99,BW,1589437723
152,pochutla,15.74,-96.47,82.0,78,57,2.33,MX,1589437723
153,marfino,55.7,37.38,52.0,57,43,15.66,RU,1589437724
154,pasighat,28.07,95.33,86.36,44,43,4.76,IN,1589437724
155,mar del plata,-38.0,-57.56,37.4,93,20,3.36,AR,1589437724
156,la ronge,55.1,-105.28,43.86,60,12,9.04,CA,1589437724
157,benoy,8.98,16.32,81.61,62,89,6.67,TD,1589437724
158,grindavik,63.84,-22.43,44.6,100,90,19.46,IS,1589437700
159,yumen,40.28,97.2,79.02,15,88,19.28,CN,1589437724
160,provideniya,64.38,-173.3,39.2,75,87,6.71,RU,1589437725
161,dubai,25.26,55.3,87.8,45,0,6.93,AE,1589437485
162,barrow,71.29,-156.79,21.2,85,1,16.11,US,1589437725
163,hakkari,37.58,44.17,59.0,47,20,3.36,TR,1589437725
164,bardstown,37.81,-85.47,53.01,100,40,7.23,US,1589437667
165,swan hill,-35.34,143.55,57.87,39,0,7.07,AU,1589437725
166,faanui,-16.48,-151.75,81.86,78,0,15.57,PF,1589437726
167,linxia,35.6,103.21,70.72,23,41,5.48,CN,1589437726
168,beaufort,5.35,115.75,89.6,70,75,5.82,MY,1589437726
169,cheremukhovo,60.35,59.99,66.63,57,4,6.4,RU,1589437726
170,awbari,26.59,12.78,81.41,12,0,12.24,LY,1589437726
171,chuy,-33.7,-53.46,48.88,90,2,8.37,UY,1589437726
172,pacific grove,36.62,-121.92,60.8,77,90,3.36,US,1589437517
173,brae,60.4,-1.35,41.0,93,96,6.93,GB,1589437727
174,macapa,0.04,-51.07,78.8,100,40,2.24,BR,1589437727
175,nyurba,63.28,118.33,44.82,58,97,7.81,RU,1589437728
176,alice springs,-23.7,133.88,68.0,18,45,13.87,AU,1589437482
177,vilcun,-38.65,-72.23,48.2,100,98,1.21,CL,1589437728
178,east london,-33.02,27.91,64.4,59,15,12.75,ZA,1589437728
179,acajutla,13.59,-89.83,70.0,100,89,3.06,SV,1589437728
180,upernavik,72.79,-56.15,34.36,90,98,3.62,GL,1589437728
181,baykit,61.67,96.37,47.5,49,78,6.44,RU,1589437729
182,sangar,63.92,127.47,44.02,79,100,13.11,RU,1589437729
183,anshun,26.25,105.93,79.16,54,11,11.21,CN,1589437729
184,pazmand,47.29,18.65,59.0,66,62,11.92,HU,1589437729
185,penhold,52.13,-113.87,44.01,39,31,3.0,CA,1589437729
186,komsomolskiy,40.43,71.72,64.4,63,40,11.41,UZ,1589437729
187,hare bay,48.85,-54.01,35.01,69,16,15.01,CA,1589437730
188,tuktoyaktuk,69.45,-133.04,21.74,96,100,7.61,CA,1589437730
189,altay,47.87,88.12,77.07,22,2,10.36,CN,1589437730
190,toora-khem,52.47,96.11,57.61,65,100,10.11,RU,1589437730
191,bredasdorp,-34.53,20.04,48.2,87,0,4.7,ZA,1589437730
192,dikson,73.51,80.55,28.04,94,21,11.1,RU,1589437730
193,scottsboro,34.67,-86.03,66.2,77,90,3.36,US,1589437731
194,katsuura,35.13,140.3,75.0,53,1,7.0,JP,1589437731
195,touros,-5.2,-35.46,73.4,100,29,4.7,BR,1589437731
196,dingle,11.0,122.67,94.8,46,99,5.19,PH,1589437731
197,manoel urbano,-8.84,-69.26,73.33,91,16,2.24,BR,1589437731
198,port elizabeth,-33.92,25.57,59.0,77,0,6.93,ZA,1589437732
199,pingyin,36.28,116.45,75.99,53,96,5.35,CN,1589437732
200,naze,28.37,129.48,77.0,69,40,8.05,JP,1589437732
201,kamiiso,41.82,140.65,66.2,29,20,20.8,JP,1589437732
202,manga,11.66,-1.07,86.79,47,4,8.66,BF,1589437630
203,fairbanks,64.84,-147.72,51.8,27,1,16.11,US,1589437733
204,zhezkazgan,47.8,67.71,59.0,87,90,17.9,KZ,1589437733
205,sechura,-5.56,-80.82,70.56,81,73,11.34,PE,1589437733
206,bubaque,11.28,-15.83,78.94,71,94,7.2,GW,1589437733
207,maslovka,51.55,39.24,55.4,58,76,8.95,RU,1589437733
208,zile,40.3,35.89,64.4,59,0,1.12,TR,1589437733
209,katherine,-14.47,132.27,91.4,26,40,11.41,AU,1589437530
210,makakilo city,21.35,-158.09,77.0,73,75,4.7,US,1589437607
211,akhalgori,42.13,44.48,66.2,55,25,25.28,GE,1589437734
212,pilismarot,47.78,18.88,59.0,76,94,1.99,HU,1589437734
213,casa nova,-9.42,-41.13,75.2,88,75,8.05,BR,1589437734
214,aykhal,66.0,111.5,32.0,97,90,2.24,RU,1589437734
215,nikko,36.75,139.62,80.01,11,36,13.0,JP,1589437734
216,husavik,66.04,-17.34,37.4,93,90,4.7,IS,1589437735
217,petropavlovsk-kamchatskiy,53.05,158.65,53.6,59,0,15.66,RU,1589437491
218,misratah,32.38,15.09,81.48,17,0,17.11,LY,1589437735
219,sabang,5.89,95.32,84.34,77,85,10.67,ID,1589437735
220,evensk,61.95,159.23,39.79,83,0,2.35,RU,1589437735
221,codrington,-38.27,141.97,53.89,62,100,4.5,AU,1589437735
222,coahuayana,18.73,-103.68,69.91,72,55,2.89,MX,1589437736
223,namibe,-15.2,12.15,74.62,57,24,2.93,AO,1589437736
224,sarmizegetusa,45.52,22.78,70.3,49,100,7.7,RO,1589437736
225,mangai,-4.05,19.53,72.97,95,100,0.72,CD,1589437736
226,tacoronte,28.48,-16.41,61.0,82,75,20.8,ES,1589437736
227,nikolskoye,59.7,30.79,41.0,93,90,6.71,RU,1589437736
228,padang,-0.95,100.35,86.32,72,94,5.82,ID,1589437737
229,hamilton,39.18,-84.53,55.4,87,90,3.36,US,1589437576
230,araouane,18.9,-3.53,82.67,15,0,10.76,ML,1589437737
231,kaiyuan,23.7,103.3,86.32,35,7,17.11,CN,1589437737
232,grandview,38.89,-94.53,64.99,88,90,11.41,US,1589437738
233,novaya lyalya,59.05,60.6,69.35,50,0,7.34,RU,1589437738
234,ancud,-41.87,-73.82,53.01,100,90,16.11,CL,1589437738
235,coruripe,-10.13,-36.18,77.13,86,6,9.48,BR,1589437738
236,valparaiso,-33.04,-71.63,48.2,87,67,5.82,CL,1589437476
237,ponta do sol,32.67,-17.1,59.0,62,40,10.29,PT,1589437739
238,iqaluit,63.75,-68.51,17.01,78,44,1.99,CA,1589437739
239,talnakh,69.49,88.4,37.4,64,20,11.18,RU,1589437739
240,ostrovnoy,68.05,39.51,38.16,96,100,8.77,RU,1589437739
241,beterou,9.2,2.26,75.25,88,89,4.23,BJ,1589437739
242,san patricio,19.22,-104.7,69.67,75,1,2.04,MX,1589437739
243,botwood,49.15,-55.35,34.0,71,99,4.0,CA,1589437740
244,bungu,-7.63,39.06,77.0,92,40,4.43,TZ,1589437740
245,anadyr,64.75,177.48,41.0,65,75,2.24,RU,1589437740
246,burnie,-41.07,145.92,61.0,59,50,7.0,AU,1589437740
247,krasnik,50.92,22.23,48.0,93,40,6.93,PL,1589437740
248,mount isa,-20.73,139.5,86.0,19,0,9.17,AU,1589437708
249,garissa,-0.45,39.64,82.35,64,86,14.36,KE,1589437741
250,kenora,49.82,-94.43,41.0,100,100,11.01,CA,1589437741
251,atar,20.52,-13.05,72.61,27,0,10.49,MR,1589437741
252,oxford,51.75,-1.26,41.0,80,0,8.05,GB,1589437732
253,vitim,59.45,112.56,48.65,48,56,9.89,RU,1589437741
254,kununurra,-15.77,128.73,89.6,17,2,11.41,AU,1589437741
255,urumqi,43.8,87.6,84.2,21,40,13.42,CN,1589437742
256,longyearbyen,78.22,15.64,37.4,64,40,24.16,SJ,1589437742
257,portree,57.41,-6.19,45.0,85,100,8.99,GB,1589437742
258,coos bay,43.37,-124.22,51.8,100,90,5.82,US,1589437742
259,oxapampa,-10.58,-75.4,57.2,87,83,3.44,PE,1589437742
260,khatanga,71.97,102.5,31.77,99,100,8.41,RU,1589437446
261,hambantota,6.12,81.12,88.0,67,16,8.59,LK,1589437743
262,laguna,38.42,-121.42,57.99,79,56,4.0,US,1589437743
263,bell ville,-32.63,-62.69,44.87,78,0,3.96,AR,1589437743
264,skegness,53.14,0.34,46.99,59,22,5.99,GB,1589437743
265,smirnykh,49.75,142.83,46.08,88,100,4.99,RU,1589437743
266,portland,45.52,-122.68,54.0,95,100,7.94,US,1589437516
267,derzhavinsk,51.1,66.32,67.96,71,100,16.49,KZ,1589437743
268,viseu,40.66,-7.91,48.0,1,100,5.01,PT,1589437744
269,wawa,9.9,4.42,79.32,75,84,4.45,NG,1589437744
270,pevek,69.7,170.31,32.02,96,93,2.73,RU,1589437744
271,bandarbeyla,9.49,50.81,88.05,65,81,12.86,SO,1589437744
272,teya,60.38,92.63,49.55,45,12,7.43,RU,1589437744
273,neuquen,-38.95,-68.06,37.4,93,66,7.7,AR,1589437744
274,saru dornei,47.28,25.35,64.99,52,14,8.01,RO,1589437745
275,gizo,-8.1,156.84,79.09,84,99,3.47,SB,1589437745
276,kondoa,-4.9,35.78,67.03,81,50,4.34,TZ,1589437745
277,phan thiet,10.93,108.1,92.01,54,65,15.05,VN,1589437663
278,mago,53.25,140.18,47.75,72,100,7.18,RU,1589437745
279,kaitangata,-46.28,169.85,55.0,54,90,11.01,NZ,1589437745
280,geraldton,-28.77,114.6,82.4,24,0,11.41,AU,1589437746
281,bilma,18.69,12.92,85.68,12,3,4.18,NE,1589437746
282,salekhard,66.53,66.6,46.45,92,100,11.68,RU,1589437746
283,bonavista,48.65,-53.11,34.0,87,72,11.01,CA,1589437746
284,niquelandia,-14.47,-48.46,65.73,89,0,1.66,BR,1589437746
285,kasongo-lunda,-6.47,16.82,72.07,89,99,0.2,CD,1589437746
286,yaan,7.38,8.57,76.87,87,20,5.37,NG,1589437746
287,sao joao da barra,-21.64,-41.05,70.95,84,62,9.48,BR,1589437747
288,kodiak,57.79,-152.41,51.8,62,90,3.36,US,1589437747
289,esperance,-33.87,121.9,80.6,24,75,8.05,AU,1589437747
290,iskenderun,36.59,36.17,72.0,60,0,4.7,TR,1589437747
291,hami,42.8,93.45,84.43,14,80,8.3,CN,1589437513
292,lima,-12.04,-77.03,64.4,88,75,8.05,PE,1589437535
293,bengkulu,-3.8,102.27,87.24,67,45,5.75,ID,1589437748
294,hasaki,35.73,140.83,81.0,41,75,10.29,JP,1589437748
295,buraydah,26.33,43.98,86.0,25,11,3.36,SA,1589437695
296,malayal,7.21,121.94,86.0,74,20,8.05,PH,1589437748
297,tromso,69.65,18.96,33.8,64,0,9.17,NO,1589437642
298,opotiki,-38.08,177.28,61.0,82,100,1.03,NZ,1589437619
299,hirara,24.8,125.28,82.4,78,75,10.29,JP,1589437748
300,paamiut,61.99,-49.67,39.27,91,93,9.04,GL,1589437749
301,homa bay,-0.53,34.46,71.6,83,21,5.82,KE,1589437749
302,oussouye,12.48,-16.55,73.4,88,33,2.24,SN,1589437749
303,coquimbo,-29.95,-71.34,48.2,93,0,1.12,CL,1589437749
304,yeppoon,-23.13,150.73,78.8,44,40,8.05,AU,1589437749
305,shaki,41.08,47.17,73.4,53,0,2.24,AZ,1589437750
306,bakchar,57.02,82.07,62.08,45,6,7.45,RU,1589437750
307,lewiston,44.1,-70.21,42.01,51,1,5.99,US,1589437750
308,adrar,20.5,-10.07,75.43,21,0,10.2,MR,1589437750
309,khairagarh,26.95,77.82,104.72,17,7,4.0,IN,1589437750
310,leh,34.17,77.58,50.76,41,89,1.21,IN,1589437750
311,huilong,31.81,121.66,81.0,61,89,5.99,CN,1589437750
312,mount gambier,-37.83,140.77,53.6,71,90,5.82,AU,1589437751
313,san francisco de macoris,19.3,-70.26,79.0,94,75,11.41,DO,1589437751
314,novikovo,51.15,37.89,51.87,61,83,12.21,RU,1589437751
315,cidreira,-30.18,-50.21,59.9,80,68,12.12,BR,1589437751
316,paita,-5.09,-81.11,69.55,84,86,9.86,PE,1589437751
317,constitucion,-35.33,-72.42,53.96,62,51,4.85,CL,1589437751
318,starodub,52.58,32.76,45.27,88,100,11.27,RU,1589437752
319,cuamba,-14.8,36.54,73.29,54,0,3.0,MZ,1589437752
320,yar-sale,66.83,70.83,43.92,78,89,17.76,RU,1589437752
321,bathsheba,13.22,-59.52,78.8,69,20,14.99,BB,1589437752
322,sajanan,37.06,9.24,64.4,100,100,3.36,TN,1589437752
323,shimoda,34.67,138.95,73.0,56,21,17.22,JP,1589437753
324,asfi,32.3,-9.24,62.17,72,47,20.6,MA,1589437753
325,damghan,36.17,54.35,64.99,28,41,8.21,IR,1589437753
326,kemerovo,55.33,86.08,55.4,54,75,13.42,RU,1589437753
327,bahir dar,11.59,37.39,78.04,43,58,3.47,ET,1589437753
328,kamennomostskiy,44.3,40.19,61.5,54,1,3.27,RU,1589437754
329,saint-francois,46.42,3.91,50.0,81,90,6.93,FR,1589437754
330,upata,8.01,-62.4,77.0,91,98,1.99,VE,1589437754
331,smithers,54.78,-127.17,52.93,66,57,4.25,CA,1589437654
332,dubno,50.42,25.73,44.6,93,75,8.95,UA,1589437754
333,puerto ayacucho,5.66,-67.62,75.9,92,100,4.05,VE,1589437754
334,aquiraz,-3.9,-38.39,77.0,88,40,9.17,BR,1589437755
335,leningradskiy,69.38,178.42,30.18,96,97,9.93,RU,1589437746
336,te anau,-45.42,167.72,44.46,83,47,3.62,NZ,1589437755
337,geetbets,50.89,5.11,45.0,69,9,11.41,BE,1589437755
338,hurricane,37.18,-113.29,68.0,31,1,3.36,US,1589437755
339,talisay,10.24,123.85,86.0,74,90,5.82,PH,1589437755
340,grenville,12.12,-61.62,79.07,79,14,16.33,GD,1589437755
341,skeldon,5.88,-57.13,75.81,93,100,6.38,GY,1589437756
342,norman wells,65.28,-126.83,21.51,95,89,4.83,CA,1589437756
343,cabo san lucas,22.89,-109.91,72.0,43,0,15.46,MX,1589437657
344,college,64.86,-147.8,51.8,27,40,17.22,US,1589437756
345,lufilufi,-13.87,-171.6,84.58,76,28,10.67,WS,1589437756
346,calvia,39.57,2.51,61.0,87,57,1.12,ES,1589437757
347,bongandanga,1.5,21.05,76.44,75,58,1.88,CD,1589437757
348,carauari,-4.88,-66.9,73.62,98,85,3.58,BR,1589437757
349,kataysk,56.29,62.58,68.04,44,100,5.61,RU,1589437757
350,culiacancito,24.82,-107.53,66.0,85,0,1.99,MX,1589437757
351,eirunepe,-6.66,-69.87,71.96,90,13,1.66,BR,1589437757
352,port macquarie,-31.43,152.92,63.0,73,1,1.99,AU,1589437729
353,lasa,46.62,10.7,44.6,87,90,3.36,IT,1589437758
354,emerald,-23.53,148.17,82.4,28,9,6.93,AU,1589437758
355,ust-kuyga,70.02,135.6,41.31,72,49,2.95,RU,1589437758
356,mecca,21.43,39.83,100.63,18,53,2.75,SA,1589437554
357,klyuchi,52.27,79.17,86.27,22,1,2.04,RU,1589437759
358,santa rosa,14.31,121.11,89.01,79,75,10.29,PH,1589437759
359,arraial do cabo,-22.97,-42.03,74.35,81,87,12.57,BR,1589437759
360,korla,41.76,86.15,83.23,15,66,7.81,CN,1589437759
361,srandakan,-7.94,110.25,84.96,71,60,18.19,ID,1589437759
362,baruun-urt,46.68,113.28,64.83,29,0,4.09,MN,1589437759
363,hastings,50.86,0.57,43.0,85,3,16.69,GB,1589437760
364,honiara,-9.43,159.95,86.0,74,90,11.41,SB,1589437760
365,sawakin,19.11,37.33,88.02,39,0,6.22,SD,1589437760
366,kano,12.0,8.52,82.4,69,82,9.17,NG,1589437760
367,bao,13.64,122.83,89.31,66,99,10.2,PH,1589437761
368,yangjiang,21.85,111.97,88.0,63,42,14.07,CN,1589437761
369,vanderhoof,54.02,-124.02,55.06,52,72,8.39,CA,1589437761
370,maceio,-9.67,-35.74,73.4,100,40,2.24,BR,1589437702
371,ca mau,9.18,105.15,95.76,46,99,8.68,VN,1589437761
372,nouakchott,18.09,-15.98,71.6,40,0,13.87,MR,1589437761
373,asau,46.43,26.4,60.01,71,86,5.06,RO,1589437762
374,aras,42.56,-2.36,53.6,93,90,1.12,ES,1589437762
375,banda aceh,5.56,95.32,86.32,73,77,4.12,ID,1589437503
376,sola,-13.88,167.55,79.99,81,84,18.03,VU,1589437762
377,richards bay,-28.78,32.04,64.11,67,2,9.08,ZA,1589437762
378,eureka,40.8,-124.16,55.99,82,100,5.68,US,1589437629
379,fairmount,43.05,-76.24,37.99,59,40,3.36,US,1589437762
380,yicheng,31.37,119.87,86.0,37,97,1.01,CN,1589437763
381,kuala terengganu,5.33,103.14,91.4,70,40,6.93,MY,1589437763
382,arraias,-12.93,-46.94,66.15,85,23,2.57,BR,1589437763
383,port augusta,-32.5,137.77,61.0,44,0,9.17,AU,1589437763
384,volkach,49.87,10.23,48.0,77,65,1.01,DE,1589437763
385,jalu,29.03,21.55,85.05,13,0,9.64,LY,1589437764
386,iskateley,67.68,53.15,51.66,89,81,18.14,RU,1589437764
387,karpathos,35.51,27.21,71.6,68,0,23.04,GR,1589437764
388,ojinaga,29.57,-104.42,78.8,41,1,14.99,MX,1589437764
389,pilar,-9.6,-35.96,73.4,100,40,2.24,BR,1589437525
390,alihe,50.57,123.72,56.89,30,65,16.75,CN,1589437764
391,nara,34.69,135.8,84.99,22,75,5.82,JP,1589437639
392,baker city,44.77,-117.83,46.4,75,1,3.36,US,1589437765
393,birao,10.28,22.79,86.16,53,0,8.01,CF,1589437765
394,tabuk,17.42,121.44,92.48,50,71,4.21,PH,1589437765
395,olinda,-8.01,-34.86,77.0,88,40,4.7,BR,1589437765
396,bhadrachalam,17.67,80.88,109.69,21,0,2.3,IN,1589437765
397,paciran,-6.88,112.38,87.58,62,57,6.04,ID,1589437766
398,ndele,8.41,20.65,78.35,73,1,5.73,CF,1589437766
399,praia da vitoria,38.73,-27.07,57.2,71,75,13.91,PT,1589437766
400,koungheul,13.98,-14.8,75.38,39,0,6.73,SN,1589437766
401,sitka,57.05,-135.33,46.4,87,90,13.87,US,1589437766
402,dicabisagan,17.08,122.42,87.85,63,93,7.85,PH,1589437766
403,aberdeen,57.14,-2.1,44.01,69,40,6.93,GB,1589437640
404,lagoa,39.05,-27.98,57.52,70,18,11.18,PT,1589437767
405,alofi,-19.06,-169.92,75.2,94,14,6.93,NU,1589437767
406,rocha,-34.48,-54.33,49.44,89,20,7.52,UY,1589437767
407,cheney,47.49,-117.58,48.2,87,20,6.93,US,1589437767
408,caborca,30.58,-111.1,66.2,27,50,2.44,MX,1589437768
409,bambous virieux,-20.34,57.76,79.0,73,40,12.75,MU,1589437768
410,ucluelet,48.93,-125.55,50.0,89,97,4.92,CA,1589437506
411,florianopolis,-27.61,-48.5,71.01,68,72,14.99,BR,1589437768
412,kindu,-2.95,25.95,74.64,83,100,1.7,CD,1589437768
413,palana,59.12,159.97,33.67,91,0,9.66,RU,1589437768
414,narsaq,60.92,-46.05,39.2,93,96,2.77,GL,1589437768
415,labuhan,-6.88,112.21,87.17,63,52,4.61,ID,1589437769
416,olafsvik,64.89,-23.71,43.36,95,92,8.93,IS,1589437769
417,port hueneme,34.15,-119.2,60.8,82,1,6.71,US,1589437674
418,zhaotong,27.32,103.72,74.61,41,70,1.43,CN,1589437769
419,la ligua,-32.45,-71.23,48.2,87,49,5.82,CL,1589437770
420,moyale,3.52,39.06,68.4,94,93,7.74,KE,1589437770
421,caceres,39.52,-6.37,48.0,95,100,1.99,ES,1589437770
422,chuguyevka,44.17,133.86,73.22,30,52,6.98,RU,1589437770
423,rio grande,-32.03,-52.1,52.0,93,0,1.99,BR,1589437770
424,mezen,65.85,44.24,35.47,88,100,17.67,RU,1589437771
425,kenitra,34.26,-6.58,57.2,82,40,13.87,MA,1589437771
426,san carlos de bariloche,-41.15,-71.31,48.2,66,40,18.34,AR,1589437771
427,marienburg,54.04,19.03,44.01,100,34,4.12,PL,1589437771
428,nikel,69.41,30.22,32.0,98,75,39.15,RU,1589437771
429,alcazar de san juan,39.39,-3.21,48.99,93,75,5.82,ES,1589437772
430,tonantins,-2.87,-67.8,71.6,94,49,2.1,BR,1589437772
431,pierre,44.37,-100.35,52.0,93,90,5.82,US,1589437606
432,piacenza,45.05,9.7,61.0,100,40,2.24,IT,1589437772
433,cabedelo,-6.98,-34.83,75.2,100,75,5.82,BR,1589437772
434,rawlins,41.79,-107.24,46.4,52,1,9.17,US,1589437772
435,redmond,47.67,-122.12,54.0,75,81,1.01,US,1589437585
436,susanville,40.42,-120.65,44.6,75,90,6.93,US,1589437772
437,kota belud,6.35,116.43,91.4,75,20,8.05,MY,1589437773
438,ondjiva,-17.07,15.73,60.58,45,65,5.91,AO,1589437773
439,abu samrah,35.3,37.18,77.45,29,55,3.22,SY,1589437773
440,thunder bay,48.4,-89.32,39.0,80,99,12.73,CA,1589437556
441,kandava,57.04,22.77,44.02,62,0,8.08,LV,1589437773
442,raudeberg,61.99,5.14,35.01,92,100,3.27,NO,1589437774
443,alekseyevsk,57.84,108.35,48.43,44,44,9.44,RU,1589437774
444,inongo,-1.95,18.27,73.0,90,97,3.04,CD,1589437774
445,kirakira,-10.45,161.92,83.34,77,96,7.16,SB,1589437774
446,berbera,10.44,45.01,92.25,45,45,2.53,SO,1589437774
447,mayo,38.89,-76.51,51.01,100,1,4.83,US,1589437774
448,ryotsu,38.08,138.43,69.8,56,6,5.82,JP,1589437774
449,gimbi,9.17,35.83,72.32,73,19,1.81,ET,1589437775
450,vanimo,-2.67,141.3,84.47,72,72,4.45,PG,1589437775
451,tocopilla,-22.09,-70.2,62.28,60,15,2.95,CL,1589437775
452,tiksi,71.69,128.87,32.76,96,100,4.61,RU,1589437775
453,buala,-8.14,159.59,83.55,76,100,3.96,SB,1589437775
454,cayenne,4.93,-52.33,78.8,94,90,10.92,GF,1589437776
455,muzhi,65.37,64.67,68.67,45,70,10.63,RU,1589437776
456,mandalgovi,45.76,106.27,72.21,21,55,14.12,MN,1589437776
457,viedma,-40.81,-63.0,43.56,63,33,11.27,AR,1589437776
458,storm lake,42.64,-95.21,53.6,100,90,10.29,US,1589437776
459,onalaska,43.88,-91.24,55.4,76,90,11.41,US,1589437633
460,raga,8.46,25.68,80.96,58,24,6.55,SS,1589437776
461,chadiza,-14.07,32.44,69.19,46,2,3.27,ZM,1589437777
462,freeport,40.66,-73.58,46.4,81,1,4.52,US,1589437553
463,meaford,44.6,-80.58,36.0,80,96,7.85,CA,1589437777
464,linqiong,30.42,103.46,82.99,39,20,4.47,CN,1589437777
465,concarneau,47.88,-3.92,46.4,65,98,16.11,FR,1589437777
466,rantepao,-2.97,119.9,79.18,79,55,3.69,ID,1589437777
467,half moon bay,37.46,-122.43,57.2,100,90,3.06,US,1589437648
468,mabaruma,8.2,-59.78,73.31,96,100,2.93,GY,1589437778
469,ulagan,50.63,87.96,68.31,30,31,14.34,RU,1589437778
470,rutland,43.62,-73.02,33.8,74,1,5.82,US,1589437778
471,sovetskiy,61.36,63.58,68.92,44,0,9.19,RU,1589437778
472,the valley,18.22,-63.06,80.6,69,20,11.41,AI,1589437766
473,skibbereen,51.55,-9.27,39.2,69,20,6.93,IE,1589437779
474,panama city,8.99,-79.52,77.0,94,79,2.24,PA,1589437654
475,laredo,27.51,-99.51,78.8,78,75,9.17,US,1589437779
476,safranbolu,41.25,32.69,69.01,52,0,2.89,TR,1589437673
477,mogadishu,2.04,45.34,84.2,70,75,10.29,SO,1589437711
478,makubetsu,45.37,141.82,46.4,93,75,13.87,JP,1589437780
479,tarata,-17.62,-66.02,55.4,66,80,3.2,BO,1589437780
480,abu kamal,34.45,40.92,85.64,27,99,9.13,SY,1589437780
481,carutapera,-1.2,-46.02,75.7,93,100,2.66,BR,1589437780
482,teknaf,20.86,92.31,90.64,51,23,8.25,BD,1589437780
483,clinton,42.59,-82.92,46.99,70,90,5.82,US,1589437552
484,turtas,58.94,69.13,74.03,51,100,2.53,RU,1589437781
485,taiyuan,37.87,112.56,80.6,24,20,6.71,CN,1589437781
486,severo-kurilsk,50.68,156.12,39.29,74,85,15.93,RU,1589437781
487,corcoran,36.1,-119.56,64.4,59,1,12.75,US,1589437781
488,lake havasu city,34.48,-114.32,78.8,21,1,8.05,US,1589437781
489,lazaro cardenas,17.96,-102.2,74.07,85,4,3.36,MX,1589437781
490,rostusa,41.61,20.6,59.0,77,75,4.7,MK,1589437782
491,qaqortoq,60.72,-46.03,39.2,93,98,1.97,GL,1589437744
492,kendari,-3.94,122.5,83.97,76,100,4.76,ID,1589437782
493,gympie,-26.19,152.66,64.99,73,37,1.01,AU,1589437782
494,ulverstone,-41.15,146.17,61.0,54,56,5.99,AU,1589437782
495,jejuri,18.28,74.17,97.36,24,24,4.21,IN,1589437783
496,opuwo,-18.06,13.84,61.79,38,2,5.75,NA,1589437783
497,salalah,17.02,54.09,89.6,66,0,3.36,OM,1589437783
498,storforshei,66.4,14.52,37.4,64,75,1.12,NO,1589437783
499,sokolo,14.73,-6.12,88.27,31,28,6.46,ML,1589437783
500,turkistan,43.0,68.0,68.25,47,100,7.14,KZ,1589437767
501,sao filipe,14.9,-24.5,70.63,80,9,10.96,CV,1589437784
502,agadez,19.75,10.25,76.95,13,26,5.14,NE,1589437784
503,bloemfontein,-29.12,26.21,41.0,53,0,2.24,ZA,1589437784
504,kloulklubed,7.04,134.26,84.2,79,75,6.93,PW,1589437784
505,xuanhua,40.61,115.04,84.07,15,86,5.99,CN,1589437784
506,poso,-1.4,120.75,86.97,68,9,5.17,ID,1589437785
507,keffi,8.85,7.87,78.8,88,54,4.7,NG,1589437785
508,sur,22.57,59.53,87.1,48,0,16.06,OM,1589437785
509,konstantinovka,49.62,127.98,70.27,42,86,14.61,RU,1589437785
510,auchel,50.5,2.47,46.0,73,0,3.0,FR,1589437786
511,basco,20.45,121.97,83.26,81,23,12.3,PH,1589437786
512,muravlenko,63.79,74.52,56.64,43,79,21.79,RU,1589437786
513,muhos,64.81,25.99,44.01,60,0,9.17,FI,1589437786
514,mporokoso,-9.37,30.12,66.09,78,50,6.11,ZM,1589437786
515,miura,35.14,139.62,73.0,53,9,7.0,JP,1589437786
516,ambon,-3.7,128.18,87.8,70,40,8.05,ID,1589437787
517,palmer,42.16,-72.33,37.99,69,1,1.07,US,1589437787
518,nalut,30.33,10.85,83.17,12,0,11.65,LY,1589437787
519,antofagasta,-23.65,-70.4,59.0,82,90,4.7,CL,1589437687
520,akyab,20.15,92.9,88.43,59,72,9.51,MM,1589437788
521,villa alemana,-33.04,-71.37,48.2,87,76,5.82,CL,1589437788
522,el tigre,8.89,-64.25,75.69,75,50,13.65,VE,1589437788
523,porto novo,6.5,2.6,80.6,88,40,3.36,BJ,1589437788
524,vestmanna,62.16,-7.17,39.2,86,71,8.63,FO,1589437788
525,kibre mengist,5.88,38.98,67.78,84,90,0.56,ET,1589437788
526,pringsewu,-5.36,104.97,84.85,79,62,3.27,ID,1589437789
527,bam,29.11,58.36,78.1,15,0,8.68,IR,1589437789
528,bud,39.45,-86.18,55.0,96,99,6.62,US,1589437789
529,melfi,41.0,15.65,73.0,68,90,10.29,IT,1589437789
530,jarinu,-23.1,-46.73,66.2,68,98,4.54,BR,1589437772
531,barcelona,41.39,2.16,64.4,82,75,11.41,ES,1589437700
532,rassvet,46.83,40.75,54.61,58,8,3.27,RU,1589437790
533,wonthaggi,-38.6,145.59,57.0,76,74,5.59,AU,1589437790
534,borba,-4.39,-59.59,73.49,98,99,2.06,BR,1589437790
535,mahajanga,-15.72,46.32,84.2,62,20,1.12,MG,1589437790
536,pailitas,8.96,-73.63,75.79,86,88,1.68,CO,1589437790
537,nosy varika,-20.58,48.53,76.42,74,8,7.25,MG,1589437790
538,victoria,22.29,114.16,79.0,85,97,11.01,HK,1589437608
539,faya,18.39,42.45,78.8,33,6,5.82,SA,1589437791
540,vuktyl,63.86,57.31,50.49,89,100,8.55,RU,1589437791
541,cocobeach,1.0,9.58,75.2,100,20,2.24,GA,1589437791
542,srednekolymsk,67.45,153.68,54.57,50,0,6.89,RU,1589437791
543,pinega,64.7,43.39,35.46,88,100,17.69,RU,1589437791
544,plettenberg bay,-34.05,23.37,58.3,70,0,4.88,ZA,1589437792
545,beloha,-25.17,45.05,72.54,69,14,7.72,MG,1589437792
546,tocache,-8.18,-76.51,70.48,88,99,0.16,PE,1589437792
547,bay roberts,47.6,-53.26,34.0,50,99,3.0,CA,1589437792
548,santiago,-33.46,-70.65,44.6,70,39,2.24,CL,1589437672
549,zhigansk,66.77,123.37,37.2,87,95,3.36,RU,1589437792
550,bagdarin,54.43,113.6,46.9,45,2,9.55,RU,1589437793
551,chernyshevskiy,63.01,112.47,40.57,66,93,6.78,RU,1589437793
552,khandyga,62.67,135.6,50.23,64,100,3.0,RU,1589437793
553,acarau,-2.89,-40.12,76.51,89,22,7.74,BR,1589437793
554,dubrovytsya,51.57,26.57,46.56,84,100,9.35,UA,1589437793
555,nouadhibou,20.93,-17.03,66.2,82,0,26.4,MR,1589437793
556,coihaique,-45.58,-72.07,41.0,93,75,2.24,CL,1589437794
557,charleston,32.78,-79.93,62.01,87,40,6.31,US,1589437566
558,mokhsogollokh,61.47,128.92,55.22,48,93,13.04,RU,1589437794
559,chicama,-7.84,-79.15,68.97,81,60,5.5,PE,1589437794
560,sidi ali,36.1,0.42,56.93,83,94,22.32,DZ,1589437794
561,havelock,34.88,-76.9,55.99,81,1,3.36,US,1589437794
562,lake charles,30.21,-93.2,77.0,88,90,13.87,US,1589437704
563,saint anthony,45.02,-93.22,53.01,93,90,6.93,US,1589437795
564,dwarka,22.24,68.97,86.54,63,0,11.14,IN,1589437795
565,tura,25.52,90.22,94.69,35,5,6.04,IN,1589437795
566,jeremie,18.65,-74.12,78.19,78,21,4.47,HT,1589437795
567,soc trang,9.6,105.98,93.2,63,40,5.82,VN,1589437795
568,finschhafen,-6.6,147.87,82.6,79,34,10.51,PG,1589437796
569,magistralnyy,56.17,107.45,46.58,47,99,8.1,RU,1589437796
570,puksoozero,62.59,40.61,37.53,97,34,7.74,RU,1589437796
571,grimshaw,56.18,-117.6,39.0,71,95,11.01,CA,1589437796
572,nuuk,64.18,-51.72,35.6,100,100,8.05,GL,1589437796
573,bom sucesso,-21.03,-44.76,61.27,94,100,4.05,BR,1589437796
574,sompeta,18.93,84.6,94.48,43,43,12.17,IN,1589437797
575,belle fourche,44.67,-103.85,48.0,93,40,3.36,US,1589437797
576,khorramshahr,30.44,48.17,86.0,35,23,9.17,IR,1589437797
577,iquique,-20.22,-70.14,64.4,72,90,4.7,CL,1589437797
578,abdulino,53.7,53.67,46.27,91,100,12.24,RU,1589437797
579,atambua,-9.11,124.89,83.86,59,49,3.78,ID,1589437798
